{
  "china": {
    "name": "全国",
    "code": "0",
    "lon": "0",
    "lat": "0",
    "province": [
      {
        "name": "北京市",
        "code": "110000",
        "lon": "116.397947",
        "lat": "39.908173",
        "city": [{
          "name": "北京市",
          "code": "110100",
          "lon": "116.397947",
          "lat": "39.908173",
          "county": [
            {
              "name": "东城区",
              "code": "110101",
              "lon": "116.409395",
              "lat": "39.93512"
            },
            {
              "name": "西城区",
              "code": "110102",
              "lon": "116.363862",
              "lat": "39.935178"
            },
            {
              "name": "崇文区",
              "code": "110103",
              "lon": "116.431818",
              "lat": "39.888204"
            },
            {
              "name": "宣武区",
              "code": "110104",
              "lon": "116.353047",
              "lat": "39.877197"
            },
            {
              "name": "朝阳区",
              "code": "110105",
              "lon": "116.497725",
              "lat": "39.952747"
            },
            {
              "name": "丰台区",
              "code": "110106",
              "lon": "116.268246",
              "lat": "39.830769"
            },
            {
              "name": "石景山",
              "code": "110107",
              "lon": "116.184347",
              "lat": "39.933779"
            },
            {
              "name": "海淀区",
              "code": "110108",
              "lon": "116.219945",
              "lat": "40.0222"
            },
            {
              "name": "门头沟",
              "code": "110109",
              "lon": "115.797379",
              "lat": "39.995674"
            },
            {
              "name": "房山区",
              "code": "110111",
              "lon": "115.838889",
              "lat": "39.71615"
            },
            {
              "name": "通州区",
              "code": "110112",
              "lon": "116.739349",
              "lat": "39.813794"
            },
            {
              "name": "顺义区",
              "code": "110113",
              "lon": "116.727977",
              "lat": "40.159271"
            },
            {
              "name": "昌平区",
              "code": "110114",
              "lon": "116.176482",
              "lat": "40.210532"
            },
            {
              "name": "大兴区",
              "code": "110115",
              "lon": "116.47188",
              "lat": "39.636547"
            },
            {
              "name": "怀柔区",
              "code": "110116",
              "lon": "116.588008",
              "lat": "40.645594"
            },
            {
              "name": "平谷区",
              "code": "110117",
              "lon": "117.160274",
              "lat": "40.204075"
            },
            {
              "name": "密云县",
              "code": "110120",
              "lon": "117.093422",
              "lat": "40.508889"
            },
            {
              "name": "延庆县",
              "code": "110130",
              "lon": "116.154896",
              "lat": "40.526351"
            }
          ]
        }]
      },
      {
        "name": "天津市",
        "code": "120000",
        "lon": "117.252381",
        "lat": "39.103856",
        "city": [{
          "name": "天津市",
          "code": "120100",
          "lon": "117.252381",
          "lat": "39.103856",
          "county": [
            {
              "name": "和平区",
              "code": "120101",
              "lon": "117.19864",
              "lat": "39.119648"
            },
            {
              "name": "河东区",
              "code": "120102",
              "lon": "117.256898",
              "lat": "39.121071"
            },
            {
              "name": "河西区",
              "code": "120103",
              "lon": "117.235622",
              "lat": "39.08383"
            },
            {
              "name": "南开区",
              "code": "120104",
              "lon": "117.153268",
              "lat": "39.107128"
            },
            {
              "name": "河北区",
              "code": "120105",
              "lon": "117.214068",
              "lat": "39.161878"
            },
            {
              "name": "红桥区",
              "code": "120106",
              "lon": "117.160242",
              "lat": "39.16632"
            },
            {
              "name": "塘沽区",
              "code": "120107",
              "lon": "117.653672",
              "lat": "38.991613"
            },
            {
              "name": "汉沽区",
              "code": "120108",
              "lon": "117.894416",
              "lat": "39.230292"
            },
            {
              "name": "大港区",
              "code": "120109",
              "lon": "117.368231",
              "lat": "38.762366"
            },
            {
              "name": "东丽区",
              "code": "120110",
              "lon": "117.401673",
              "lat": "39.12048"
            },
            {
              "name": "西青区",
              "code": "120111",
              "lon": "117.12179",
              "lat": "39.000234"
            },
            {
              "name": "津南区",
              "code": "120112",
              "lon": "117.393486",
              "lat": "38.960844"
            },
            {
              "name": "北辰区",
              "code": "120113",
              "lon": "117.176657",
              "lat": "39.256731"
            },
            {
              "name": "武清区",
              "code": "120114",
              "lon": "117.067255",
              "lat": "39.422354"
            },
            {
              "name": "宝坻区",
              "code": "120115",
              "lon": "117.424257",
              "lat": "39.596173"
            },
            {
              "name": "宁河县",
              "code": "120120",
              "lon": "117.674292",
              "lat": "39.386582"
            },
            {
              "name": "静海县",
              "code": "120130",
              "lon": "116.97739",
              "lat": "38.826603"
            },
            {
              "name": "蓟县",
              "code": "120140",
              "lon": "117.473706",
              "lat": "40.00266"
            }
          ]
        }]
      },
      {
        "name": "河北省",
        "code": "130000",
        "lon": "114.489777",
        "lat": "38.045128",
        "city": [
          {
            "name": "石家庄",
            "code": "130100",
            "lon": "114.489244",
            "lat": "38.074126",
            "county": [
              {
                "name": "长安区",
                "code": "130102",
                "lon": "108.902683",
                "lat": "33.991085"
              },
              {
                "name": "桥东区",
                "code": "130103",
                "lon": "114.507258",
                "lat": "37.068019"
              },
              {
                "name": "桥西区",
                "code": "130104",
                "lon": "114.469771",
                "lat": "38.032214"
              },
              {
                "name": "新华区",
                "code": "130105",
                "lon": "114.46327",
                "lat": "38.050879"
              },
              {
                "name": "井陉矿",
                "code": "130107",
                "lon": "114.053235",
                "lat": "37.954324"
              },
              {
                "name": "裕华区",
                "code": "130108",
                "lon": "114.531419",
                "lat": "38.006451"
              },
              {
                "name": "井陉县",
                "code": "130121",
                "lon": "114.053235",
                "lat": "37.954324"
              },
              {
                "name": "正定县",
                "code": "130123",
                "lon": "114.548049",
                "lat": "38.163091"
              },
              {
                "name": "栾城县",
                "code": "130124",
                "lon": "114.639952",
                "lat": "37.906825"
              },
              {
                "name": "行唐县",
                "code": "130125",
                "lon": "114.42235",
                "lat": "38.523173"
              },
              {
                "name": "灵寿县",
                "code": "130126",
                "lon": "114.163195",
                "lat": "38.503495"
              },
              {
                "name": "高邑县",
                "code": "130127",
                "lon": "114.597455",
                "lat": "37.61837"
              },
              {
                "name": "深泽县",
                "code": "130128",
                "lon": "115.227603",
                "lat": "38.207179"
              },
              {
                "name": "赞皇县",
                "code": "130129",
                "lon": "114.273026",
                "lat": "37.602859"
              },
              {
                "name": "无极县",
                "code": "130130",
                "lon": "114.956507",
                "lat": "38.179202"
              },
              {
                "name": "平山县",
                "code": "130131",
                "lon": "113.901647",
                "lat": "38.462923"
              },
              {
                "name": "元氏县",
                "code": "130132",
                "lon": "114.413423",
                "lat": "37.799239"
              },
              {
                "name": "赵县",
                "code": "130133",
                "lon": "114.851782",
                "lat": "37.756245"
              },
              {
                "name": "辛集市",
                "code": "130181",
                "lon": "115.308552",
                "lat": "37.884067"
              },
              {
                "name": "藁城市",
                "code": "130182",
                "lon": "114.813008",
                "lat": "38.005581"
              },
              {
                "name": "晋州市",
                "code": "130183",
                "lon": "115.0889",
                "lat": "37.981035"
              },
              {
                "name": "新乐市",
                "code": "130184",
                "lon": "114.713069",
                "lat": "38.374282"
              },
              {
                "name": "鹿泉市",
                "code": "130185",
                "lon": "114.347463",
                "lat": "38.08383"
              }
            ]
          },
          {
            "name": "唐山市",
            "code": "130200",
            "lon": "118.180404",
            "lat": "39.630581",
            "county": [
              {
                "name": "路南区",
                "code": "130202",
                "lon": "118.186176",
                "lat": "39.598124"
              },
              {
                "name": "路北区",
                "code": "130203",
                "lon": "118.16327",
                "lat": "39.647138"
              },
              {
                "name": "古冶区",
                "code": "130204",
                "lon": "118.446962",
                "lat": "39.707442"
              },
              {
                "name": "开平区",
                "code": "130205",
                "lon": "118.271245",
                "lat": "39.690421"
              },
              {
                "name": "丰南区",
                "code": "130207",
                "lon": "118.160716",
                "lat": "39.428536"
              },
              {
                "name": "丰润区",
                "code": "130208",
                "lon": "118.066388",
                "lat": "39.805256"
              },
              {
                "name": "滦县",
                "code": "130223",
                "lon": "118.546804",
                "lat": "39.782157"
              },
              {
                "name": "滦南县",
                "code": "130224",
                "lon": "118.620597",
                "lat": "39.3979"
              },
              {
                "name": "乐亭县",
                "code": "130225",
                "lon": "119.006664",
                "lat": "39.361253"
              },
              {
                "name": "迁西县",
                "code": "130227",
                "lon": "118.362483",
                "lat": "40.201707"
              },
              {
                "name": "玉田县",
                "code": "130229",
                "lon": "117.73343",
                "lat": "39.768626"
              },
              {
                "name": "唐海县",
                "code": "130230",
                "lon": "118.410097",
                "lat": "39.281633"
              },
              {
                "name": "遵化市",
                "code": "130281",
                "lon": "117.904919",
                "lat": "40.140967"
              },
              {
                "name": "迁安市",
                "code": "130283",
                "lon": "118.692019",
                "lat": "40.0521"
              }
            ]
          },
          {
            "name": "秦皇岛",
            "code": "130300",
            "lon": "119.633571",
            "lat": "39.954178",
            "county": [
              {
                "name": "海港区",
                "code": "130302",
                "lon": "119.612564",
                "lat": "39.934125"
              },
              {
                "name": "山海关",
                "code": "130303",
                "lon": "119.776833",
                "lat": "39.978378"
              },
              {
                "name": "北戴河",
                "code": "130304",
                "lon": "119.483893",
                "lat": "39.834056"
              },
              {
                "name": "青龙",
                "code": "130321",
                "lon": "119.093127",
                "lat": "40.346561"
              },
              {
                "name": "昌黎县",
                "code": "130322",
                "lon": "119.059975",
                "lat": "39.623706"
              },
              {
                "name": "抚宁县",
                "code": "130323",
                "lon": "119.419649",
                "lat": "40.021609"
              },
              {
                "name": "卢龙县",
                "code": "130324",
                "lon": "118.973222",
                "lat": "39.927419"
              }
            ]
          },
          {
            "name": "邯郸市",
            "code": "130400",
            "lon": "114.48064",
            "lat": "36.609637",
            "county": [
              {
                "name": "邯山区",
                "code": "130402",
                "lon": "114.482775",
                "lat": "36.599655"
              },
              {
                "name": "丛台区",
                "code": "130403",
                "lon": "114.493482",
                "lat": "36.618722"
              },
              {
                "name": "复兴区",
                "code": "130404",
                "lon": "114.459279",
                "lat": "36.611342"
              },
              {
                "name": "峰峰矿",
                "code": "130406",
                "lon": "114.202881",
                "lat": "36.452244"
              },
              {
                "name": "邯郸县",
                "code": "130421",
                "lon": "114.583969",
                "lat": "36.600482"
              },
              {
                "name": "临漳县",
                "code": "130423",
                "lon": "114.559486",
                "lat": "36.257528"
              },
              {
                "name": "成安县",
                "code": "130424",
                "lon": "114.687417",
                "lat": "36.398548"
              },
              {
                "name": "大名县",
                "code": "130425",
                "lon": "115.229609",
                "lat": "36.290915"
              },
              {
                "name": "涉县",
                "code": "130426",
                "lon": "113.728366",
                "lat": "36.603686"
              },
              {
                "name": "磁县",
                "code": "130427",
                "lon": "114.361389",
                "lat": "36.408496"
              },
              {
                "name": "肥乡县",
                "code": "130428",
                "lon": "114.831161",
                "lat": "36.575672"
              },
              {
                "name": "永年县",
                "code": "130429",
                "lon": "114.621273",
                "lat": "36.751642"
              },
              {
                "name": "邱县",
                "code": "130430",
                "lon": "115.193614",
                "lat": "36.796304"
              },
              {
                "name": "鸡泽县",
                "code": "130431",
                "lon": "114.855291",
                "lat": "36.861425"
              },
              {
                "name": "广平县",
                "code": "130432",
                "lon": "115.006117",
                "lat": "36.483624"
              },
              {
                "name": "馆陶县",
                "code": "130433",
                "lon": "115.297018",
                "lat": "36.614692"
              },
              {
                "name": "魏县",
                "code": "130434",
                "lon": "114.934158",
                "lat": "36.234305"
              },
              {
                "name": "曲周县",
                "code": "130435",
                "lon": "115.03885",
                "lat": "36.769641"
              },
              {
                "name": "武安市",
                "code": "130481",
                "lon": "114.068577",
                "lat": "36.678409"
              }
            ]
          },
          {
            "name": "邢台市",
            "code": "130500",
            "lon": "114.493246",
            "lat": "37.068302",
            "county": [
              {
                "name": "桥东区",
                "code": "130502",
                "lon": "114.507258",
                "lat": "37.068019"
              },
              {
                "name": "桥西区",
                "code": "130503",
                "lon": "114.468033",
                "lat": "37.059843"
              },
              {
                "name": "邢台县",
                "code": "130521",
                "lon": "114.125526",
                "lat": "37.16519"
              },
              {
                "name": "临城县",
                "code": "130522",
                "lon": "114.498804",
                "lat": "37.444548"
              },
              {
                "name": "内丘县",
                "code": "130523",
                "lon": "114.512129",
                "lat": "37.286713"
              },
              {
                "name": "柏乡县",
                "code": "130524",
                "lon": "114.693478",
                "lat": "37.48241"
              },
              {
                "name": "隆尧县",
                "code": "130525",
                "lon": "114.770522",
                "lat": "37.35016"
              },
              {
                "name": "任县",
                "code": "130526",
                "lon": "114.682889",
                "lat": "37.128896"
              },
              {
                "name": "南和县",
                "code": "130527",
                "lon": "114.683651",
                "lat": "37.005037"
              },
              {
                "name": "宁晋县",
                "code": "130528",
                "lon": "114.919299",
                "lat": "37.619883"
              },
              {
                "name": "巨鹿县",
                "code": "130529",
                "lon": "115.037477",
                "lat": "37.221111"
              },
              {
                "name": "新河县",
                "code": "130530",
                "lon": "115.242087",
                "lat": "37.528753"
              },
              {
                "name": "广宗县",
                "code": "130531",
                "lon": "115.142909",
                "lat": "37.074714"
              },
              {
                "name": "平乡县",
                "code": "130532",
                "lon": "115.030074",
                "lat": "37.063217"
              },
              {
                "name": "威县",
                "code": "130533",
                "lon": "115.266656",
                "lat": "36.975781"
              },
              {
                "name": "清河县",
                "code": "130534",
                "lon": "115.671551",
                "lat": "37.071486"
              },
              {
                "name": "临西县",
                "code": "130535",
                "lon": "115.501649",
                "lat": "36.870738"
              },
              {
                "name": "南宫市",
                "code": "130581",
                "lon": "115.386701",
                "lat": "37.361494"
              },
              {
                "name": "沙河市",
                "code": "130582",
                "lon": "114.503321",
                "lat": "36.854952"
              }
            ]
          },
          {
            "name": "保定市",
            "code": "130600",
            "lon": "115.474387",
            "lat": "38.867488",
            "county": [
              {
                "name": "新市区",
                "code": "130602",
                "lon": "87.573963",
                "lat": "43.843674"
              },
              {
                "name": "北市区",
                "code": "130603",
                "lon": "115.497197",
                "lat": "38.882782"
              },
              {
                "name": "南市区",
                "code": "130604",
                "lon": "115.528579",
                "lat": "38.854514"
              },
              {
                "name": "满城县",
                "code": "130621",
                "lon": "115.22109",
                "lat": "38.938073"
              },
              {
                "name": "清苑县",
                "code": "130622",
                "lon": "115.494279",
                "lat": "38.739264"
              },
              {
                "name": "涞水县",
                "code": "130623",
                "lon": "115.428146",
                "lat": "39.626672"
              },
              {
                "name": "阜平县",
                "code": "130624",
                "lon": "114.150771",
                "lat": "38.890348"
              },
              {
                "name": "徐水县",
                "code": "130625",
                "lon": "115.554392",
                "lat": "39.023893"
              },
              {
                "name": "定兴县",
                "code": "130626",
                "lon": "115.736085",
                "lat": "39.213153"
              },
              {
                "name": "唐县",
                "code": "130627",
                "lon": "114.769278",
                "lat": "38.884402"
              },
              {
                "name": "高阳县",
                "code": "130628",
                "lon": "115.802625",
                "lat": "38.647277"
              },
              {
                "name": "容城县",
                "code": "130629",
                "lon": "115.907618",
                "lat": "39.040245"
              },
              {
                "name": "涞源县",
                "code": "130630",
                "lon": "114.714432",
                "lat": "39.364854"
              },
              {
                "name": "望都县",
                "code": "130631",
                "lon": "115.173358",
                "lat": "38.658881"
              },
              {
                "name": "安新县",
                "code": "130632",
                "lon": "115.8813",
                "lat": "38.880376"
              },
              {
                "name": "易县",
                "code": "130633",
                "lon": "115.24494",
                "lat": "39.317491"
              },
              {
                "name": "曲阳县",
                "code": "130634",
                "lon": "114.647462",
                "lat": "38.715745"
              },
              {
                "name": "蠡县",
                "code": "130635",
                "lon": "115.660254",
                "lat": "38.514401"
              },
              {
                "name": "顺平县",
                "code": "130636",
                "lon": "115.065833",
                "lat": "38.931472"
              },
              {
                "name": "博野县",
                "code": "130637",
                "lon": "115.499471",
                "lat": "38.450724"
              },
              {
                "name": "雄县",
                "code": "130638",
                "lon": "116.175367",
                "lat": "39.042011"
              },
              {
                "name": "涿州市",
                "code": "130681",
                "lon": "116.000015",
                "lat": "39.478324"
              },
              {
                "name": "定州市",
                "code": "130682",
                "lon": "114.991565",
                "lat": "38.507745"
              },
              {
                "name": "安国市",
                "code": "130683",
                "lon": "115.336286",
                "lat": "38.401815"
              },
              {
                "name": "高碑店",
                "code": "130684",
                "lon": "115.999875",
                "lat": "39.239308"
              }
            ]
          },
          {
            "name": "张家口",
            "code": "130700",
            "lon": "115.105519",
            "lat": "40.492344",
            "county": [
              {
                "name": "桥东区",
                "code": "130702",
                "lon": "114.894301",
                "lat": "40.788454"
              },
              {
                "name": "桥西区",
                "code": "130703",
                "lon": "114.869624",
                "lat": "40.81946"
              },
              {
                "name": "宣化区",
                "code": "130705",
                "lon": "115.105519",
                "lat": "40.492344"
              },
              {
                "name": "下花园",
                "code": "130706",
                "lon": "115.283243",
                "lat": "40.490671"
              },
              {
                "name": "宣化县",
                "code": "130721",
                "lon": "115.105519",
                "lat": "40.492344"
              },
              {
                "name": "张北县",
                "code": "130722",
                "lon": "114.818727",
                "lat": "41.256283"
              },
              {
                "name": "康保县",
                "code": "130723",
                "lon": "114.582156",
                "lat": "41.797944"
              },
              {
                "name": "沽源县",
                "code": "130724",
                "lon": "115.460054",
                "lat": "41.576657"
              },
              {
                "name": "尚义县",
                "code": "130725",
                "lon": "114.168237",
                "lat": "41.116462"
              },
              {
                "name": "蔚县",
                "code": "130726",
                "lon": "114.630747",
                "lat": "39.879848"
              },
              {
                "name": "阳原县",
                "code": "130727",
                "lon": "114.362859",
                "lat": "40.148176"
              },
              {
                "name": "怀安县",
                "code": "130728",
                "lon": "114.467175",
                "lat": "40.552189"
              },
              {
                "name": "万全县",
                "code": "130729",
                "lon": "114.593582",
                "lat": "40.845429"
              },
              {
                "name": "怀来县",
                "code": "130730",
                "lon": "115.624934",
                "lat": "40.331939"
              },
              {
                "name": "涿鹿县",
                "code": "130731",
                "lon": "115.226208",
                "lat": "40.082578"
              },
              {
                "name": "赤城县",
                "code": "130732",
                "lon": "115.947744",
                "lat": "40.951843"
              },
              {
                "name": "崇礼县",
                "code": "130733",
                "lon": "115.19076",
                "lat": "41.032889"
              }
            ]
          },
          {
            "name": "承德市",
            "code": "130800",
            "lon": "117.88521",
            "lat": "41.029951",
            "county": [
              {
                "name": "双桥区",
                "code": "130802",
                "lon": "117.9432",
                "lat": "40.974666"
              },
              {
                "name": "双滦区",
                "code": "130803",
                "lon": "117.800152",
                "lat": "40.959046"
              },
              {
                "name": "鹰手营子矿",
                "code": "130804",
                "lon": "117.659401",
                "lat": "40.546352"
              },
              {
                "name": "承德县",
                "code": "130821",
                "lon": "118.203921",
                "lat": "40.993026"
              },
              {
                "name": "兴隆县",
                "code": "130822",
                "lon": "117.728677",
                "lat": "40.448392"
              },
              {
                "name": "平泉县",
                "code": "130823",
                "lon": "118.804597",
                "lat": "41.025014"
              },
              {
                "name": "滦平县",
                "code": "130824",
                "lon": "117.273452",
                "lat": "40.960424"
              },
              {
                "name": "隆化县",
                "code": "130825",
                "lon": "117.527447",
                "lat": "41.492105"
              },
              {
                "name": "丰宁",
                "code": "130826",
                "lon": "116.65015",
                "lat": "41.364812"
              },
              {
                "name": "宽城",
                "code": "130827",
                "lon": "118.690699",
                "lat": "40.510708"
              },
              {
                "name": "围场",
                "code": "130828",
                "lon": "117.527533",
                "lat": "42.093788"
              }
            ]
          },
          {
            "name": "沧州市",
            "code": "130900",
            "lon": "116.838838",
            "lat": "38.304453",
            "county": [
              {
                "name": "新华区",
                "code": "130902",
                "lon": "116.87435",
                "lat": "38.308696"
              },
              {
                "name": "运河区",
                "code": "130903",
                "lon": "116.84741",
                "lat": "38.311036"
              },
              {
                "name": "沧县",
                "code": "130921",
                "lon": "116.984847",
                "lat": "38.232028"
              },
              {
                "name": "青县",
                "code": "130922",
                "lon": "116.83062",
                "lat": "38.575464"
              },
              {
                "name": "东光县",
                "code": "130923",
                "lon": "116.543248",
                "lat": "37.884092"
              },
              {
                "name": "海兴县",
                "code": "130924",
                "lon": "117.496655",
                "lat": "38.141198"
              },
              {
                "name": "盐山县",
                "code": "130925",
                "lon": "117.233734",
                "lat": "38.055205"
              },
              {
                "name": "肃宁县",
                "code": "130926",
                "lon": "115.836432",
                "lat": "38.428505"
              },
              {
                "name": "南皮县",
                "code": "130927",
                "lon": "116.709491",
                "lat": "38.041788"
              },
              {
                "name": "吴桥县",
                "code": "130928",
                "lon": "116.4105",
                "lat": "37.63302"
              },
              {
                "name": "献县",
                "code": "130929",
                "lon": "116.127613",
                "lat": "38.188917"
              },
              {
                "name": "孟村",
                "code": "130930",
                "lon": "117.098036",
                "lat": "38.062765"
              },
              {
                "name": "泊头市",
                "code": "130981",
                "lon": "116.581861",
                "lat": "38.07519"
              },
              {
                "name": "任丘市",
                "code": "130982",
                "lon": "116.083298",
                "lat": "38.703941"
              },
              {
                "name": "黄骅市",
                "code": "130983",
                "lon": "117.351612",
                "lat": "38.370707"
              },
              {
                "name": "河间市",
                "code": "130984",
                "lon": "116.095115",
                "lat": "38.443144"
              }
            ]
          },
          {
            "name": "廊坊市",
            "code": "131000",
            "lon": "116.755518",
            "lat": "39.393224",
            "county": [
              {
                "name": "安次区",
                "code": "131002",
                "lon": "116.703086",
                "lat": "39.52057"
              },
              {
                "name": "广阳区",
                "code": "131003",
                "lon": "116.711744",
                "lat": "39.523111"
              },
              {
                "name": "固安县",
                "code": "131022",
                "lon": "116.294349",
                "lat": "39.328107"
              },
              {
                "name": "永清县",
                "code": "131023",
                "lon": "116.563611",
                "lat": "39.299627"
              },
              {
                "name": "香河县",
                "code": "131024",
                "lon": "117.045593",
                "lat": "39.741143"
              },
              {
                "name": "大城县",
                "code": "131025",
                "lon": "116.578063",
                "lat": "38.67468"
              },
              {
                "name": "文安县",
                "code": "131026",
                "lon": "116.481428",
                "lat": "38.898815"
              },
              {
                "name": "大厂",
                "code": "131028",
                "lon": "116.951029",
                "lat": "39.907679"
              },
              {
                "name": "霸州市",
                "code": "131081",
                "lon": "116.599349",
                "lat": "39.104181"
              },
              {
                "name": "三河市",
                "code": "131082",
                "lon": "117.010049",
                "lat": "39.94903"
              }
            ]
          },
          {
            "name": "衡水市",
            "code": "131100",
            "lon": "115.698684",
            "lat": "37.735299",
            "county": [
              {
                "name": "桃城区",
                "code": "131102",
                "lon": "115.675296",
                "lat": "37.734994"
              },
              {
                "name": "枣强县",
                "code": "131121",
                "lon": "115.724208",
                "lat": "37.513819"
              },
              {
                "name": "武邑县",
                "code": "131122",
                "lon": "115.887651",
                "lat": "37.801655"
              },
              {
                "name": "武强县",
                "code": "131123",
                "lon": "115.981851",
                "lat": "38.040191"
              },
              {
                "name": "饶阳县",
                "code": "131124",
                "lon": "115.725828",
                "lat": "38.235888"
              },
              {
                "name": "安平县",
                "code": "131125",
                "lon": "115.519212",
                "lat": "38.234506"
              },
              {
                "name": "故城县",
                "code": "131126",
                "lon": "115.965886",
                "lat": "37.347456"
              },
              {
                "name": "景县",
                "code": "131127",
                "lon": "116.270649",
                "lat": "37.692319"
              },
              {
                "name": "阜城县",
                "code": "131128",
                "lon": "116.144414",
                "lat": "37.868874"
              },
              {
                "name": "冀州市",
                "code": "131181",
                "lon": "115.57938",
                "lat": "37.551025"
              },
              {
                "name": "深州市",
                "code": "131182",
                "lon": "115.560014",
                "lat": "38.000821"
              }
            ]
          }
        ]
      },
      {
        "name": "山西省",
        "code": "140000",
        "lon": "112.522305",
        "lat": "37.835742",
        "city": [
          {
            "name": "太原市",
            "code": "140100",
            "lon": "112.522305",
            "lat": "37.835742",
            "county": [
              {
                "name": "小店区",
                "code": "140105",
                "lon": "112.565639",
                "lat": "37.736037"
              },
              {
                "name": "迎泽区",
                "code": "140106",
                "lon": "112.563386",
                "lat": "37.863267"
              },
              {
                "name": "杏花岭",
                "code": "140107",
                "lon": "112.562217",
                "lat": "37.884482"
              },
              {
                "name": "尖草坪",
                "code": "140108",
                "lon": "112.486975",
                "lat": "37.940229"
              },
              {
                "name": "万柏林",
                "code": "140109",
                "lon": "112.515686",
                "lat": "37.859498"
              },
              {
                "name": "晋源区",
                "code": "140110",
                "lon": "112.477673",
                "lat": "37.715323"
              },
              {
                "name": "清徐县",
                "code": "140121",
                "lon": "112.396896",
                "lat": "37.558484"
              },
              {
                "name": "阳曲县",
                "code": "140122",
                "lon": "112.668432",
                "lat": "38.136438"
              },
              {
                "name": "娄烦县",
                "code": "140123",
                "lon": "111.782734",
                "lat": "38.039135"
              },
              {
                "name": "古交市",
                "code": "140181",
                "lon": "112.043681",
                "lat": "37.910414"
              }
            ]
          },
          {
            "name": "大同市",
            "code": "140200",
            "lon": "113.226621",
            "lat": "40.055779",
            "county": [
              {
                "name": "城区",
                "code": "140202",
                "lon": "113.298",
                "lat": "40.075666"
              },
              {
                "name": "矿区",
                "code": "140203",
                "lon": "113.177204",
                "lat": "40.036856"
              },
              {
                "name": "南郊区",
                "code": "140211",
                "lon": "113.149695",
                "lat": "40.005404"
              },
              {
                "name": "新荣区",
                "code": "140212",
                "lon": "113.140007",
                "lat": "40.255867"
              },
              {
                "name": "阳高县",
                "code": "140221",
                "lon": "113.753901",
                "lat": "40.366239"
              },
              {
                "name": "天镇县",
                "code": "140222",
                "lon": "114.090861",
                "lat": "40.420382"
              },
              {
                "name": "广灵县",
                "code": "140223",
                "lon": "114.282725",
                "lat": "39.760445"
              },
              {
                "name": "灵丘县",
                "code": "140224",
                "lon": "114.234348",
                "lat": "39.442407"
              },
              {
                "name": "浑源县",
                "code": "140225",
                "lon": "113.690375",
                "lat": "39.698982"
              },
              {
                "name": "左云县",
                "code": "140226",
                "lon": "112.702936",
                "lat": "40.013795"
              },
              {
                "name": "大同县",
                "code": "140227",
                "lon": "113.612441",
                "lat": "40.040298"
              }
            ]
          },
          {
            "name": "阳泉市",
            "code": "140300",
            "lon": "113.592539",
            "lat": "37.856321",
            "county": [
              {
                "name": "城区",
                "code": "140302",
                "lon": "113.600693",
                "lat": "37.847409"
              },
              {
                "name": "矿区",
                "code": "140303",
                "lon": "113.556769",
                "lat": "37.86895"
              },
              {
                "name": "郊区",
                "code": "140311",
                "lon": "113.585393",
                "lat": "37.941397"
              },
              {
                "name": "平定县",
                "code": "140321",
                "lon": "113.629543",
                "lat": "37.8043"
              },
              {
                "name": "盂县",
                "code": "140322",
                "lon": "113.412327",
                "lat": "38.08562"
              }
            ]
          },
          {
            "name": "长治市",
            "code": "140400",
            "lon": "113.123474",
            "lat": "36.200867",
            "county": [
              {
                "name": "城区",
                "code": "140402",
                "lon": "113.123088",
                "lat": "36.203516"
              },
              {
                "name": "郊区",
                "code": "140411",
                "lon": "113.126532",
                "lat": "36.199188"
              },
              {
                "name": "长治县",
                "code": "140421",
                "lon": "113.051408",
                "lat": "36.052855"
              },
              {
                "name": "襄垣县",
                "code": "140423",
                "lon": "113.051333",
                "lat": "36.535054"
              },
              {
                "name": "屯留县",
                "code": "140424",
                "lon": "112.893448",
                "lat": "36.318298"
              },
              {
                "name": "平顺县",
                "code": "140425",
                "lon": "113.436112",
                "lat": "36.200001"
              },
              {
                "name": "黎城县",
                "code": "140426",
                "lon": "113.387157",
                "lat": "36.502332"
              },
              {
                "name": "壶关县",
                "code": "140427",
                "lon": "113.207052",
                "lat": "36.115448"
              },
              {
                "name": "长子县",
                "code": "140428",
                "lon": "112.877902",
                "lat": "36.122338"
              },
              {
                "name": "武乡县",
                "code": "140429",
                "lon": "112.863793",
                "lat": "36.83736"
              },
              {
                "name": "沁县",
                "code": "140430",
                "lon": "112.699159",
                "lat": "36.756146"
              },
              {
                "name": "沁源县",
                "code": "140431",
                "lon": "112.337447",
                "lat": "36.500202"
              },
              {
                "name": "潞城市",
                "code": "140481",
                "lon": "113.228896",
                "lat": "36.33409"
              }
            ]
          },
          {
            "name": "晋城市",
            "code": "140500",
            "lon": "112.851766",
            "lat": "35.490865",
            "county": [
              {
                "name": "城区",
                "code": "140502",
                "lon": "112.853258",
                "lat": "35.501592"
              },
              {
                "name": "沁水县",
                "code": "140521",
                "lon": "112.186664",
                "lat": "35.690276"
              },
              {
                "name": "阳城县",
                "code": "140522",
                "lon": "112.414738",
                "lat": "35.486026"
              },
              {
                "name": "陵川县",
                "code": "140524",
                "lon": "113.280684",
                "lat": "35.775686"
              },
              {
                "name": "泽州县",
                "code": "140525",
                "lon": "110.99762",
                "lat": "35.019032"
              },
              {
                "name": "高平市",
                "code": "140581",
                "lon": "112.923939",
                "lat": "35.797992"
              }
            ]
          },
          {
            "name": "朔州市",
            "code": "140600",
            "lon": "112.371436",
            "lat": "39.415126",
            "county": [
              {
                "name": "朔城区",
                "code": "140602",
                "lon": "112.431904",
                "lat": "39.319824"
              },
              {
                "name": "平鲁区",
                "code": "140603",
                "lon": "112.288331",
                "lat": "39.512161"
              },
              {
                "name": "山阴县",
                "code": "140621",
                "lon": "112.816597",
                "lat": "39.526231"
              },
              {
                "name": "应县",
                "code": "140622",
                "lon": "113.191098",
                "lat": "39.554246"
              },
              {
                "name": "右玉县",
                "code": "140623",
                "lon": "112.466966",
                "lat": "39.989024"
              },
              {
                "name": "怀仁县",
                "code": "140624",
                "lon": "113.099957",
                "lat": "39.827918"
              }
            ]
          },
          {
            "name": "晋中市",
            "code": "140700",
            "lon": "112.752632",
            "lat": "37.687208",
            "county": [
              {
                "name": "榆次区",
                "code": "140702",
                "lon": "112.707882",
                "lat": "37.697803"
              },
              {
                "name": "榆社县",
                "code": "140721",
                "lon": "112.975287",
                "lat": "37.070784"
              },
              {
                "name": "左权县",
                "code": "140722",
                "lon": "113.379368",
                "lat": "37.082682"
              },
              {
                "name": "和顺县",
                "code": "140723",
                "lon": "113.570008",
                "lat": "37.32898"
              },
              {
                "name": "昔阳县",
                "code": "140724",
                "lon": "113.704838",
                "lat": "37.600114"
              },
              {
                "name": "寿阳县",
                "code": "140725",
                "lon": "113.174972",
                "lat": "37.888944"
              },
              {
                "name": "太谷县",
                "code": "140726",
                "lon": "112.557678",
                "lat": "37.429427"
              },
              {
                "name": "祁县",
                "code": "140727",
                "lon": "112.474455",
                "lat": "37.38038"
              },
              {
                "name": "平遥县",
                "code": "140728",
                "lon": "112.206502",
                "lat": "37.200603"
              },
              {
                "name": "灵石县",
                "code": "140729",
                "lon": "111.778657",
                "lat": "36.847749"
              },
              {
                "name": "介休市",
                "code": "140781",
                "lon": "111.916834",
                "lat": "37.026951"
              }
            ]
          },
          {
            "name": "运城市",
            "code": "140800",
            "lon": "111.007318",
            "lat": "35.026368",
            "county": [
              {
                "name": "盐湖区",
                "code": "140802",
                "lon": "110.99762",
                "lat": "35.019032"
              },
              {
                "name": "临猗县",
                "code": "140821",
                "lon": "110.77461",
                "lat": "35.14338"
              },
              {
                "name": "万荣县",
                "code": "140822",
                "lon": "110.838007",
                "lat": "35.4156"
              },
              {
                "name": "闻喜县",
                "code": "140823",
                "lon": "111.224663",
                "lat": "35.356594"
              },
              {
                "name": "稷山县",
                "code": "140824",
                "lon": "110.983372",
                "lat": "35.604024"
              },
              {
                "name": "新绛县",
                "code": "140825",
                "lon": "111.224663",
                "lat": "35.616244"
              },
              {
                "name": "绛县",
                "code": "140826",
                "lon": "111.571881",
                "lat": "35.491809"
              },
              {
                "name": "垣曲县",
                "code": "140827",
                "lon": "111.670049",
                "lat": "35.297378"
              },
              {
                "name": "夏县",
                "code": "140828",
                "lon": "111.220694",
                "lat": "35.141678"
              },
              {
                "name": "平陆县",
                "code": "140829",
                "lon": "111.217346",
                "lat": "34.836869"
              },
              {
                "name": "芮城县",
                "code": "140830",
                "lon": "110.694369",
                "lat": "34.693577"
              },
              {
                "name": "永济市",
                "code": "140881",
                "lon": "110.447552",
                "lat": "34.867051"
              },
              {
                "name": "河津市",
                "code": "140882",
                "lon": "110.712308",
                "lat": "35.59599"
              }
            ]
          },
          {
            "name": "忻州市",
            "code": "140900",
            "lon": "112.734264",
            "lat": "38.416367",
            "county": [
              {
                "name": "忻府区",
                "code": "140902",
                "lon": "112.746034",
                "lat": "38.404152"
              },
              {
                "name": "定襄县",
                "code": "140921",
                "lon": "112.957188",
                "lat": "38.473767"
              },
              {
                "name": "五台县",
                "code": "140922",
                "lon": "113.432164",
                "lat": "38.798957"
              },
              {
                "name": "代县",
                "code": "140923",
                "lon": "112.960256",
                "lat": "39.066897"
              },
              {
                "name": "繁峙县",
                "code": "140924",
                "lon": "113.265567",
                "lat": "39.188809"
              },
              {
                "name": "宁武县",
                "code": "140925",
                "lon": "112.304767",
                "lat": "39.001552"
              },
              {
                "name": "静乐县",
                "code": "140926",
                "lon": "111.939547",
                "lat": "38.359443"
              },
              {
                "name": "神池县",
                "code": "140927",
                "lon": "112.211298",
                "lat": "39.090559"
              },
              {
                "name": "五寨县",
                "code": "140928",
                "lon": "111.846829",
                "lat": "38.911097"
              },
              {
                "name": "岢岚县",
                "code": "140929",
                "lon": "111.572911",
                "lat": "38.704183"
              },
              {
                "name": "河曲县",
                "code": "140930",
                "lon": "111.138607",
                "lat": "39.385081"
              },
              {
                "name": "保德县",
                "code": "140931",
                "lon": "111.086562",
                "lat": "39.022484"
              },
              {
                "name": "偏关县",
                "code": "140932",
                "lon": "111.503484",
                "lat": "39.436433"
              },
              {
                "name": "原平市",
                "code": "140981",
                "lon": "112.710972",
                "lat": "38.730853"
              }
            ]
          },
          {
            "name": "临汾市",
            "code": "141000",
            "lon": "111.518848",
            "lat": "36.087743",
            "county": [
              {
                "name": "尧都区",
                "code": "141002",
                "lon": "111.515071",
                "lat": "36.083563"
              },
              {
                "name": "曲沃县",
                "code": "141021",
                "lon": "111.475858",
                "lat": "35.641089"
              },
              {
                "name": "翼城县",
                "code": "141022",
                "lon": "111.718952",
                "lat": "35.738161"
              },
              {
                "name": "襄汾县",
                "code": "141023",
                "lon": "111.44174",
                "lat": "35.876324"
              },
              {
                "name": "洪洞县",
                "code": "141024",
                "lon": "111.67491",
                "lat": "36.253756"
              },
              {
                "name": "古县",
                "code": "141025",
                "lon": "111.919785",
                "lat": "36.268497"
              },
              {
                "name": "安泽县",
                "code": "141026",
                "lon": "112.250233",
                "lat": "36.14783"
              },
              {
                "name": "浮山县",
                "code": "141027",
                "lon": "111.84891",
                "lat": "35.968108"
              },
              {
                "name": "吉县",
                "code": "141028",
                "lon": "110.681763",
                "lat": "36.098189"
              },
              {
                "name": "乡宁县",
                "code": "141029",
                "lon": "110.847201",
                "lat": "35.970478"
              },
              {
                "name": "大宁县",
                "code": "141030",
                "lon": "110.752777",
                "lat": "36.465058"
              },
              {
                "name": "隰县",
                "code": "141031",
                "lon": "110.94066",
                "lat": "36.693354"
              },
              {
                "name": "永和县",
                "code": "141032",
                "lon": "110.631788",
                "lat": "36.759808"
              },
              {
                "name": "蒲县",
                "code": "141033",
                "lon": "111.096518",
                "lat": "36.41182"
              },
              {
                "name": "汾西县",
                "code": "141034",
                "lon": "111.563952",
                "lat": "36.65285"
              },
              {
                "name": "侯马市",
                "code": "141081",
                "lon": "111.371756",
                "lat": "35.619114"
              },
              {
                "name": "霍州市",
                "code": "141082",
                "lon": "111.728876",
                "lat": "36.570105"
              }
            ]
          },
          {
            "name": "吕梁市",
            "code": "141100",
            "lon": "111.150591",
            "lat": "37.5177",
            "county": [
              {
                "name": "离石区",
                "code": "141102",
                "lon": "111.150591",
                "lat": "37.5177"
              },
              {
                "name": "文水县",
                "code": "141121",
                "lon": "112.027287",
                "lat": "37.437222"
              },
              {
                "name": "交城县",
                "code": "141122",
                "lon": "112.155926",
                "lat": "37.551961"
              },
              {
                "name": "兴县",
                "code": "141123",
                "lon": "111.127621",
                "lat": "38.462418"
              },
              {
                "name": "临县",
                "code": "141124",
                "lon": "110.992094",
                "lat": "37.950754"
              },
              {
                "name": "柳林县",
                "code": "141125",
                "lon": "110.888969",
                "lat": "37.429973"
              },
              {
                "name": "石楼县",
                "code": "141126",
                "lon": "110.834509",
                "lat": "36.998491"
              },
              {
                "name": "岚县",
                "code": "141127",
                "lon": "111.671841",
                "lat": "38.279452"
              },
              {
                "name": "方山县",
                "code": "141128",
                "lon": "111.244115",
                "lat": "37.894651"
              },
              {
                "name": "中阳县",
                "code": "141129",
                "lon": "111.179581",
                "lat": "37.357119"
              },
              {
                "name": "交口县",
                "code": "141130",
                "lon": "111.181351",
                "lat": "36.982218"
              },
              {
                "name": "孝义市",
                "code": "141181",
                "lon": "111.77899",
                "lat": "37.146404"
              },
              {
                "name": "汾阳市",
                "code": "141182",
                "lon": "111.787756",
                "lat": "37.265455"
              }
            ]
          }
        ]
      },
      {
        "name": "内蒙",
        "code": "150000",
        "lon": "111.6633",
        "lat": "40.820942",
        "city": [
          {
            "name": "呼和浩特",
            "code": "150100",
            "lon": "111.814556",
            "lat": "40.867233",
            "county": [
              {
                "name": "新城区",
                "code": "150102",
                "lon": "111.665543",
                "lat": "40.858292"
              },
              {
                "name": "回民区",
                "code": "150103",
                "lon": "111.624023",
                "lat": "40.808279"
              },
              {
                "name": "玉泉区",
                "code": "150104",
                "lon": "111.666026",
                "lat": "40.800556"
              },
              {
                "name": "赛罕区",
                "code": "150105",
                "lon": "111.70186",
                "lat": "40.792101"
              },
              {
                "name": "土默特左",
                "code": "150121",
                "lon": "111.298521",
                "lat": "40.675365"
              },
              {
                "name": "托克托",
                "code": "150122",
                "lon": "111.294894",
                "lat": "40.33795"
              },
              {
                "name": "和林格尔",
                "code": "150123",
                "lon": "111.878425",
                "lat": "40.385324"
              },
              {
                "name": "清水河",
                "code": "150124",
                "lon": "111.681937",
                "lat": "39.924671"
              },
              {
                "name": "武川县",
                "code": "150125",
                "lon": "111.198549",
                "lat": "41.083079"
              }
            ]
          },
          {
            "name": "包头市",
            "code": "150200",
            "lon": "109.930036",
            "lat": "40.642867",
            "county": [
              {
                "name": "东河区",
                "code": "150202",
                "lon": "110.029385",
                "lat": "40.583689"
              },
              {
                "name": "昆都仑",
                "code": "150203",
                "lon": "109.837532",
                "lat": "40.640799"
              },
              {
                "name": "青山区",
                "code": "150204",
                "lon": "109.886531",
                "lat": "40.665047"
              },
              {
                "name": "石拐区",
                "code": "150205",
                "lon": "110.272018",
                "lat": "40.671923"
              },
              {
                "name": "白云矿",
                "code": "150206",
                "lon": "109.976116",
                "lat": "41.774832"
              },
              {
                "name": "九原区",
                "code": "150207",
                "lon": "109.964958",
                "lat": "40.605547"
              },
              {
                "name": "土默特右",
                "code": "150221",
                "lon": "110.689691",
                "lat": "40.550942"
              },
              {
                "name": "固阳县",
                "code": "150222",
                "lon": "110.063696",
                "lat": "41.01849"
              },
              {
                "name": "达尔罕茂明安",
                "code": "150223",
                "lon": "110.474707",
                "lat": "41.975596"
              }
            ]
          },
          {
            "name": "乌海市",
            "code": "150300",
            "lon": "106.822697",
            "lat": "39.690512",
            "county": [
              {
                "name": "海勃湾",
                "code": "150302",
                "lon": "106.822214",
                "lat": "39.669555"
              },
              {
                "name": "海南区",
                "code": "150303",
                "lon": "106.891426",
                "lat": "39.441455"
              },
              {
                "name": "乌达区",
                "code": "150304",
                "lon": "106.717629",
                "lat": "39.505721"
              }
            ]
          },
          {
            "name": "赤峰市",
            "code": "150400",
            "lon": "118.984745",
            "lat": "42.290382",
            "county": [
              {
                "name": "红山区",
                "code": "150402",
                "lon": "118.959317",
                "lat": "42.265202"
              },
              {
                "name": "元宝山",
                "code": "150403",
                "lon": "119.288821",
                "lat": "42.038975"
              },
              {
                "name": "松山区",
                "code": "150404",
                "lon": "118.93257",
                "lat": "42.286136"
              },
              {
                "name": "阿鲁科尔沁",
                "code": "150421",
                "lon": "120.065696",
                "lat": "43.872344"
              },
              {
                "name": "巴林左",
                "code": "150422",
                "lon": "119.379287",
                "lat": "43.971368"
              },
              {
                "name": "巴林右",
                "code": "150423",
                "lon": "118.680604",
                "lat": "43.5308"
              },
              {
                "name": "林西县",
                "code": "150424",
                "lon": "118.061979",
                "lat": "43.618928"
              },
              {
                "name": "克什克腾",
                "code": "150425",
                "lon": "117.545804",
                "lat": "43.265136"
              },
              {
                "name": "翁牛特",
                "code": "150426",
                "lon": "119.030246",
                "lat": "42.931621"
              },
              {
                "name": "喀喇沁",
                "code": "150428",
                "lon": "118.701932",
                "lat": "41.927362"
              },
              {
                "name": "宁城县",
                "code": "150429",
                "lon": "119.342744",
                "lat": "41.59395"
              },
              {
                "name": "敖汉旗",
                "code": "150430",
                "lon": "119.92179",
                "lat": "42.291477"
              }
            ]
          },
          {
            "name": "通辽市",
            "code": "150500",
            "lon": "122.134699",
            "lat": "46.087177",
            "county": [
              {
                "name": "科尔沁",
                "code": "150502",
                "lon": "122.393751",
                "lat": "43.642165"
              },
              {
                "name": "科尔沁左翼中",
                "code": "150521",
                "lon": "122.437582",
                "lat": "44.113849"
              },
              {
                "name": "科尔沁左翼后",
                "code": "150522",
                "lon": "122.671698",
                "lat": "43.306888"
              },
              {
                "name": "开鲁县",
                "code": "150523",
                "lon": "121.344348",
                "lat": "43.763028"
              },
              {
                "name": "库伦旗",
                "code": "150524",
                "lon": "121.573334",
                "lat": "42.892834"
              },
              {
                "name": "奈曼旗",
                "code": "150525",
                "lon": "120.812321",
                "lat": "43.015855"
              },
              {
                "name": "扎鲁特",
                "code": "150526",
                "lon": "120.858096",
                "lat": "44.639735"
              },
              {
                "name": "霍林郭勒",
                "code": "150581",
                "lon": "119.608088",
                "lat": "45.497225"
              }
            ]
          },
          {
            "name": "鄂尔多斯",
            "code": "150600",
            "lon": "109.974421",
            "lat": "39.813712",
            "county": [
              {
                "name": "东胜区",
                "code": "150602",
                "lon": "109.963145",
                "lat": "39.822298"
              },
              {
                "name": "达拉特",
                "code": "150621",
                "lon": "110.140259",
                "lat": "40.286915"
              },
              {
                "name": "准格尔",
                "code": "150622",
                "lon": "111.240038",
                "lat": "39.864178"
              },
              {
                "name": "鄂托克前",
                "code": "150623",
                "lon": "107.858387",
                "lat": "38.431854"
              },
              {
                "name": "鄂托克",
                "code": "150624",
                "lon": "107.978557",
                "lat": "39.087736"
              },
              {
                "name": "杭锦旗",
                "code": "150625",
                "lon": "108.736206",
                "lat": "39.833306"
              },
              {
                "name": "乌审旗",
                "code": "150626",
                "lon": "108.846037",
                "lat": "38.590879"
              },
              {
                "name": "伊金霍洛",
                "code": "150627",
                "lon": "109.747549",
                "lat": "39.564949"
              }
            ]
          },
          {
            "name": "呼伦贝尔",
            "code": "150700",
            "lon": "119.765772",
            "lat": "49.211941",
            "county": [
              {
                "name": "海拉尔",
                "code": "150702",
                "lon": "119.73056",
                "lat": "49.211529"
              },
              {
                "name": "阿荣旗",
                "code": "150721",
                "lon": "123.459613",
                "lat": "48.125825"
              },
              {
                "name": "莫力达",
                "code": "150722",
                "lon": "124.504892",
                "lat": "48.474415"
              },
              {
                "name": "鄂伦春",
                "code": "150723",
                "lon": "123.726193",
                "lat": "50.59186"
              },
              {
                "name": "鄂温克",
                "code": "150724",
                "lon": "119.753154",
                "lat": "49.14471"
              },
              {
                "name": "陈巴尔虎",
                "code": "150725",
                "lon": "119.424745",
                "lat": "49.326465"
              },
              {
                "name": "新巴尔虎左",
                "code": "150726",
                "lon": "118.270204",
                "lat": "48.218075"
              },
              {
                "name": "新巴尔虎右",
                "code": "150727",
                "lon": "116.823667",
                "lat": "48.672118"
              },
              {
                "name": "满洲里",
                "code": "150781",
                "lon": "117.480336",
                "lat": "49.587665"
              },
              {
                "name": "牙克石",
                "code": "150782",
                "lon": "120.711744",
                "lat": "49.285898"
              },
              {
                "name": "扎兰屯",
                "code": "150783",
                "lon": "122.737466",
                "lat": "48.013734"
              },
              {
                "name": "额尔古纳",
                "code": "150784",
                "lon": "120.179915",
                "lat": "50.242443"
              },
              {
                "name": "根河市",
                "code": "150785",
                "lon": "121.520097",
                "lat": "50.78034"
              }
            ]
          },
          {
            "name": "巴彦淖尔",
            "code": "150800",
            "lon": "107.386819",
            "lat": "40.765908",
            "county": [
              {
                "name": "临河区",
                "code": "150802",
                "lon": "107.394569",
                "lat": "40.762341"
              },
              {
                "name": "五原县",
                "code": "150821",
                "lon": "108.269867",
                "lat": "41.095362"
              },
              {
                "name": "磴口县",
                "code": "150822",
                "lon": "106.997856",
                "lat": "40.329534"
              },
              {
                "name": "乌拉特前",
                "code": "150823",
                "lon": "108.65544",
                "lat": "40.728291"
              },
              {
                "name": "乌拉特中",
                "code": "150824",
                "lon": "108.526361",
                "lat": "41.568285"
              },
              {
                "name": "乌拉特后",
                "code": "150825",
                "lon": "107.076348",
                "lat": "41.091133"
              },
              {
                "name": "杭锦后",
                "code": "150826",
                "lon": "107.146719",
                "lat": "40.887652"
              }
            ]
          },
          {
            "name": "乌兰察布",
            "code": "150900",
            "lon": "113.121092",
            "lat": "41.031707",
            "county": [
              {
                "name": "集宁区",
                "code": "150902",
                "lon": "113.114526",
                "lat": "41.035309"
              },
              {
                "name": "卓资县",
                "code": "150921",
                "lon": "112.578213",
                "lat": "40.888568"
              },
              {
                "name": "化德县",
                "code": "150922",
                "lon": "114.010438",
                "lat": "41.904561"
              },
              {
                "name": "商都县",
                "code": "150923",
                "lon": "113.577754",
                "lat": "41.561992"
              },
              {
                "name": "兴和县",
                "code": "150924",
                "lon": "113.844999",
                "lat": "40.861432"
              },
              {
                "name": "凉城县",
                "code": "150925",
                "lon": "112.50382",
                "lat": "40.531578"
              },
              {
                "name": "察哈尔右翼前",
                "code": "150926",
                "lon": "113.212159",
                "lat": "40.785733"
              },
              {
                "name": "察哈尔右翼中",
                "code": "150927",
                "lon": "112.635366",
                "lat": "41.27754"
              },
              {
                "name": "察哈尔右翼后",
                "code": "150928",
                "lon": "113.191313",
                "lat": "41.436356"
              },
              {
                "name": "四子王",
                "code": "150929",
                "lon": "111.706613",
                "lat": "41.533463"
              },
              {
                "name": "丰镇市",
                "code": "150981",
                "lon": "113.170145",
                "lat": "40.440913"
              }
            ]
          },
          {
            "name": "兴安盟",
            "code": "152200",
            "lon": "122.134699",
            "lat": "46.087177",
            "county": [
              {
                "name": "乌兰浩特",
                "code": "152201",
                "lon": "122.068459",
                "lat": "46.068226"
              },
              {
                "name": "阿尔山",
                "code": "152202",
                "lon": "119.943506",
                "lat": "47.177659"
              },
              {
                "name": "科尔沁右翼前",
                "code": "152221",
                "lon": "121.953177",
                "lat": "46.079088"
              },
              {
                "name": "科尔沁右翼中",
                "code": "152222",
                "lon": "121.476528",
                "lat": "45.060836"
              },
              {
                "name": "扎赉特",
                "code": "152223",
                "lon": "122.907186",
                "lat": "46.724697"
              },
              {
                "name": "突泉县",
                "code": "152224",
                "lon": "121.566124",
                "lat": "45.378912"
              }
            ]
          },
          {
            "name": "锡林郭勒",
            "code": "152500",
            "lon": "116.099374",
            "lat": "43.945488",
            "county": [
              {
                "name": "二连浩特",
                "code": "152501",
                "lon": "111.977946",
                "lat": "43.653171"
              },
              {
                "name": "锡林浩特",
                "code": "152502",
                "lon": "116.066269",
                "lat": "43.94429"
              },
              {
                "name": "阿巴嘎",
                "code": "152522",
                "lon": "114.968791",
                "lat": "44.021737"
              },
              {
                "name": "苏尼特左",
                "code": "152523",
                "lon": "113.650764",
                "lat": "43.856896"
              },
              {
                "name": "苏尼特右",
                "code": "152524",
                "lon": "112.657542",
                "lat": "42.747044"
              },
              {
                "name": "东乌珠穆沁",
                "code": "152525",
                "lon": "116.971886",
                "lat": "45.509896"
              },
              {
                "name": "西乌珠穆沁",
                "code": "152526",
                "lon": "117.608911",
                "lat": "44.587885"
              },
              {
                "name": "太仆寺",
                "code": "152527",
                "lon": "115.282996",
                "lat": "41.877262"
              },
              {
                "name": "镶黄旗",
                "code": "152528",
                "lon": "113.847284",
                "lat": "42.23237"
              },
              {
                "name": "正镶白",
                "code": "152529",
                "lon": "114.997555",
                "lat": "42.308602"
              },
              {
                "name": "正蓝旗",
                "code": "152530",
                "lon": "116.003619",
                "lat": "42.25237"
              },
              {
                "name": "多伦县",
                "code": "152531",
                "lon": "116.485559",
                "lat": "42.203591"
              }
            ]
          },
          {
            "name": "阿拉善",
            "code": "152900",
            "lon": "105.686073",
            "lat": "38.846368",
            "county": [
              {
                "name": "阿拉善左",
                "code": "152921",
                "lon": "105.664787",
                "lat": "38.837301"
              },
              {
                "name": "阿拉善右",
                "code": "152922",
                "lon": "101.670881",
                "lat": "39.215273"
              },
              {
                "name": "额济纳",
                "code": "152923",
                "lon": "101.068929",
                "lat": "41.958541"
              }
            ]
          }
        ]
      },
      {
        "name": "辽宁省",
        "code": "210000",
        "lon": "123.411682",
        "lat": "41.796616",
        "city": [
          {
            "name": "沈阳市",
            "code": "210100",
            "lon": "123.416408",
            "lat": "41.827587",
            "county": [
              {
                "name": "和平区",
                "code": "210102",
                "lon": "117.19864",
                "lat": "39.119648"
              },
              {
                "name": "沈河区",
                "code": "210103",
                "lon": "123.458508",
                "lat": "41.796016"
              },
              {
                "name": "大东区",
                "code": "210104",
                "lon": "123.469967",
                "lat": "41.805398"
              },
              {
                "name": "皇姑区",
                "code": "210105",
                "lon": "123.425345",
                "lat": "41.820183"
              },
              {
                "name": "铁西区",
                "code": "210106",
                "lon": "122.96967",
                "lat": "41.119776"
              },
              {
                "name": "苏家屯",
                "code": "210111",
                "lon": "123.343763",
                "lat": "41.66505"
              },
              {
                "name": "东陵区",
                "code": "210112",
                "lon": "123.464431",
                "lat": "41.769903"
              },
              {
                "name": "沈北新",
                "code": "210113",
                "lon": "123.526744",
                "lat": "42.053419"
              },
              {
                "name": "于洪区",
                "code": "210114",
                "lon": "123.308004",
                "lat": "41.794032"
              },
              {
                "name": "辽中县",
                "code": "210122",
                "lon": "122.731544",
                "lat": "41.512193"
              },
              {
                "name": "康平县",
                "code": "210123",
                "lon": "123.353516",
                "lat": "42.749951"
              },
              {
                "name": "法库县",
                "code": "210124",
                "lon": "123.408405",
                "lat": "42.503886"
              },
              {
                "name": "新民市",
                "code": "210181",
                "lon": "122.883486",
                "lat": "42.003937"
              }
            ]
          },
          {
            "name": "大连市",
            "code": "210200",
            "lon": "121.616485",
            "lat": "38.914453",
            "county": [
              {
                "name": "中山区",
                "code": "210202",
                "lon": "121.674861",
                "lat": "38.903458"
              },
              {
                "name": "西岗区",
                "code": "210203",
                "lon": "121.622611",
                "lat": "38.906413"
              },
              {
                "name": "沙河口",
                "code": "210204",
                "lon": "121.565362",
                "lat": "38.906956"
              },
              {
                "name": "甘井子",
                "code": "210211",
                "lon": "121.523101",
                "lat": "38.952109"
              },
              {
                "name": "旅顺口",
                "code": "210212",
                "lon": "121.287324",
                "lat": "38.847412"
              },
              {
                "name": "金州区",
                "code": "210213",
                "lon": "121.926205",
                "lat": "39.162111"
              },
              {
                "name": "长海县",
                "code": "210224",
                "lon": "122.591983",
                "lat": "39.281816"
              },
              {
                "name": "瓦房店",
                "code": "210281",
                "lon": "121.753278",
                "lat": "39.743288"
              },
              {
                "name": "普兰店",
                "code": "210282",
                "lon": "122.234702",
                "lat": "39.650492"
              },
              {
                "name": "庄河市",
                "code": "210283",
                "lon": "123.005494",
                "lat": "39.840432"
              }
            ]
          },
          {
            "name": "鞍山市",
            "code": "210300",
            "lon": "123.026898",
            "lat": "41.06319",
            "county": [
              {
                "name": "铁东区",
                "code": "210302",
                "lon": "122.9888",
                "lat": "41.104652"
              },
              {
                "name": "铁西区",
                "code": "210303",
                "lon": "122.96967",
                "lat": "41.119776"
              },
              {
                "name": "立山区",
                "code": "210304",
                "lon": "123.029258",
                "lat": "41.149973"
              },
              {
                "name": "千山区",
                "code": "210311",
                "lon": "122.961066",
                "lat": "41.075105"
              },
              {
                "name": "台安县",
                "code": "210321",
                "lon": "122.423937",
                "lat": "41.288376"
              },
              {
                "name": "岫岩",
                "code": "210323",
                "lon": "123.319538",
                "lat": "40.416192"
              },
              {
                "name": "海城市",
                "code": "210381",
                "lon": "122.733282",
                "lat": "40.827953"
              }
            ]
          },
          {
            "name": "抚顺市",
            "code": "210400",
            "lon": "123.95388",
            "lat": "41.876998",
            "county": [
              {
                "name": "新抚区",
                "code": "210402",
                "lon": "123.907907",
                "lat": "41.873611"
              },
              {
                "name": "东洲区",
                "code": "210403",
                "lon": "124.005561",
                "lat": "41.812915"
              },
              {
                "name": "望花区",
                "code": "210404",
                "lon": "123.794514",
                "lat": "41.862098"
              },
              {
                "name": "顺城区",
                "code": "210411",
                "lon": "123.934826",
                "lat": "41.947769"
              },
              {
                "name": "抚顺县",
                "code": "210421",
                "lon": "124.083377",
                "lat": "41.764214"
              },
              {
                "name": "新宾",
                "code": "210422",
                "lon": "124.864297",
                "lat": "41.609659"
              },
              {
                "name": "清原",
                "code": "210423",
                "lon": "124.914347",
                "lat": "42.143201"
              }
            ]
          },
          {
            "name": "本溪市",
            "code": "210500",
            "lon": "123.799084",
            "lat": "41.292753",
            "county": [
              {
                "name": "平山区",
                "code": "210502",
                "lon": "123.762574",
                "lat": "41.301717"
              },
              {
                "name": "溪湖区",
                "code": "210503",
                "lon": "123.767574",
                "lat": "41.328881"
              },
              {
                "name": "明山区",
                "code": "210504",
                "lon": "123.817463",
                "lat": "41.308277"
              },
              {
                "name": "南芬区",
                "code": "210505",
                "lon": "123.74646",
                "lat": "41.102598"
              },
              {
                "name": "本溪县",
                "code": "210521",
                "lon": "124.174808",
                "lat": "41.193438"
              },
              {
                "name": "桓仁",
                "code": "210522",
                "lon": "125.241448",
                "lat": "41.241126"
              }
            ]
          },
          {
            "name": "丹东市",
            "code": "210600",
            "lon": "124.384214",
            "lat": "40.124644",
            "county": [
              {
                "name": "元宝区",
                "code": "210602",
                "lon": "124.324325",
                "lat": "40.162567"
              },
              {
                "name": "振兴区",
                "code": "210603",
                "lon": "124.340526",
                "lat": "40.05853"
              },
              {
                "name": "振安区",
                "code": "210604",
                "lon": "124.428814",
                "lat": "40.205796"
              },
              {
                "name": "宽甸",
                "code": "210624",
                "lon": "125.024575",
                "lat": "40.678938"
              },
              {
                "name": "东港市",
                "code": "210681",
                "lon": "123.87115",
                "lat": "39.990997"
              },
              {
                "name": "凤城市",
                "code": "210682",
                "lon": "124.03631",
                "lat": "40.573023"
              }
            ]
          },
          {
            "name": "锦州市",
            "code": "210700",
            "lon": "121.096802",
            "lat": "41.125506",
            "county": [
              {
                "name": "古塔区",
                "code": "210702",
                "lon": "121.128323",
                "lat": "41.117254"
              },
              {
                "name": "凌河区",
                "code": "210703",
                "lon": "121.15094",
                "lat": "41.114918"
              },
              {
                "name": "太和区",
                "code": "210711",
                "lon": "121.103797",
                "lat": "41.109057"
              },
              {
                "name": "黑山县",
                "code": "210726",
                "lon": "122.203535",
                "lat": "41.800815"
              },
              {
                "name": "义县",
                "code": "210727",
                "lon": "121.303729",
                "lat": "41.546761"
              },
              {
                "name": "凌海市",
                "code": "210781",
                "lon": "121.118446",
                "lat": "28.848892"
              },
              {
                "name": "北镇市",
                "code": "210782",
                "lon": "121.800238",
                "lat": "41.596181"
              }
            ]
          },
          {
            "name": "营口市",
            "code": "210800",
            "lon": "122.298507",
            "lat": "40.600244",
            "county": [
              {
                "name": "站前区",
                "code": "210802",
                "lon": "122.260773",
                "lat": "40.682696"
              },
              {
                "name": "西市区",
                "code": "210803",
                "lon": "122.212408",
                "lat": "40.665365"
              },
              {
                "name": "鲅鱼圈",
                "code": "210804",
                "lon": "122.128809",
                "lat": "40.263211"
              },
              {
                "name": "老边区",
                "code": "210811",
                "lon": "122.378866",
                "lat": "40.680068"
              },
              {
                "name": "盖州市",
                "code": "210881",
                "lon": "122.423658",
                "lat": "40.246941"
              },
              {
                "name": "大石桥",
                "code": "210882",
                "lon": "122.550838",
                "lat": "40.630426"
              }
            ]
          },
          {
            "name": "阜新市",
            "code": "210900",
            "lon": "121.674829",
            "lat": "42.018166",
            "county": [
              {
                "name": "海州区",
                "code": "210902",
                "lon": "121.656622",
                "lat": "42.013623"
              },
              {
                "name": "新邱区",
                "code": "210903",
                "lon": "121.79246",
                "lat": "42.087586"
              },
              {
                "name": "太平区",
                "code": "210904",
                "lon": "121.678648",
                "lat": "42.010665"
              },
              {
                "name": "清河门",
                "code": "210905",
                "lon": "121.451122",
                "lat": "41.79352"
              },
              {
                "name": "细河区",
                "code": "210911",
                "lon": "121.680139",
                "lat": "42.025332"
              },
              {
                "name": "阜新县",
                "code": "210921",
                "lon": "121.731369",
                "lat": "42.172723"
              },
              {
                "name": "彰武县",
                "code": "210922",
                "lon": "122.5388",
                "lat": "42.386547"
              }
            ]
          },
          {
            "name": "辽阳市",
            "code": "211000",
            "lon": "123.401806",
            "lat": "41.15129",
            "county": [
              {
                "name": "白塔区",
                "code": "211002",
                "lon": "123.174323",
                "lat": "41.270122"
              },
              {
                "name": "文圣区",
                "code": "211003",
                "lon": "123.185395",
                "lat": "41.262808"
              },
              {
                "name": "宏伟区",
                "code": "211004",
                "lon": "123.196553",
                "lat": "41.217589"
              },
              {
                "name": "弓长岭",
                "code": "211005",
                "lon": "123.432298",
                "lat": "41.152728"
              },
              {
                "name": "太子河",
                "code": "211011",
                "lon": "123.1815",
                "lat": "41.253589"
              },
              {
                "name": "辽阳县",
                "code": "211021",
                "lon": "123.363569",
                "lat": "41.010678"
              },
              {
                "name": "灯塔市",
                "code": "211081",
                "lon": "123.283285",
                "lat": "41.417323"
              }
            ]
          },
          {
            "name": "盘锦市",
            "code": "211100",
            "lon": "122.031144",
            "lat": "41.162897",
            "county": [
              {
                "name": "双台子",
                "code": "211102",
                "lon": "122.060294",
                "lat": "41.190548"
              },
              {
                "name": "兴隆台",
                "code": "211103",
                "lon": "122.075443",
                "lat": "41.124027"
              },
              {
                "name": "大洼县",
                "code": "211121",
                "lon": "122.068856",
                "lat": "40.916204"
              },
              {
                "name": "盘山县",
                "code": "211122",
                "lon": "122.282338",
                "lat": "41.155426"
              }
            ]
          },
          {
            "name": "铁岭市",
            "code": "211200",
            "lon": "123.842343",
            "lat": "42.286254",
            "county": [
              {
                "name": "银州区",
                "code": "211202",
                "lon": "123.85731",
                "lat": "42.29508"
              },
              {
                "name": "清河区",
                "code": "211204",
                "lon": "124.15791",
                "lat": "42.548496"
              },
              {
                "name": "铁岭县",
                "code": "211221",
                "lon": "124.003951",
                "lat": "42.263749"
              },
              {
                "name": "西丰县",
                "code": "211223",
                "lon": "124.727107",
                "lat": "42.738038"
              },
              {
                "name": "昌图县",
                "code": "211224",
                "lon": "124.110854",
                "lat": "42.785748"
              },
              {
                "name": "调兵山",
                "code": "211281",
                "lon": "123.567256",
                "lat": "42.467483"
              },
              {
                "name": "开原市",
                "code": "211282",
                "lon": "124.038273",
                "lat": "42.546307"
              }
            ]
          },
          {
            "name": "朝阳市",
            "code": "211300",
            "lon": "120.454627",
            "lat": "41.585276",
            "county": [
              {
                "name": "双塔区",
                "code": "211302",
                "lon": "120.453855",
                "lat": "41.566006"
              },
              {
                "name": "龙城区",
                "code": "211303",
                "lon": "120.437193",
                "lat": "41.592642"
              },
              {
                "name": "朝阳县",
                "code": "211321",
                "lon": "120.337758",
                "lat": "41.421619"
              },
              {
                "name": "建平县",
                "code": "211322",
                "lon": "119.640995",
                "lat": "41.398107"
              },
              {
                "name": "喀喇沁左",
                "code": "211324",
                "lon": "119.740741",
                "lat": "41.127324"
              },
              {
                "name": "北票市",
                "code": "211381",
                "lon": "120.770699",
                "lat": "41.801127"
              },
              {
                "name": "凌源市",
                "code": "211382",
                "lon": "119.401485",
                "lat": "41.244442"
              }
            ]
          },
          {
            "name": "葫芦岛",
            "code": "211400",
            "lon": "120.836316",
            "lat": "40.711012",
            "county": [
              {
                "name": "连山区",
                "code": "211402",
                "lon": "120.638402",
                "lat": "40.928"
              },
              {
                "name": "龙港区",
                "code": "211403",
                "lon": "120.90703",
                "lat": "40.751963"
              },
              {
                "name": "南票区",
                "code": "211404",
                "lon": "120.650321",
                "lat": "41.070818"
              },
              {
                "name": "绥中县",
                "code": "211421",
                "lon": "120.048788",
                "lat": "40.304289"
              },
              {
                "name": "建昌县",
                "code": "211422",
                "lon": "119.759184",
                "lat": "40.758684"
              },
              {
                "name": "兴城市",
                "code": "211481",
                "lon": "120.470946",
                "lat": "40.550893"
              }
            ]
          }
        ]
      },
      {
        "name": "吉林省",
        "code": "220000",
        "lon": "125.31543",
        "lat": "43.892563",
        "city": [
          {
            "name": "长春市",
            "code": "220100",
            "lon": "125.324789",
            "lat": "43.886859",
            "county": [
              {
                "name": "南关区",
                "code": "220102",
                "lon": "125.414139",
                "lat": "43.710804"
              },
              {
                "name": "宽城区",
                "code": "220103",
                "lon": "125.338351",
                "lat": "43.991726"
              },